{
"type": "FeatureCollection",
"name": "Auberge",
"crs": { "type": "name", "properties": { "name": "urn:ogc:def:crs:OGC:1.3:CRS84" } },
"features": [
{ "type": "Feature", "properties": { "id": 1, "Nom": "Auberge Tislite", "Parc": "Parc National du Haut Atlas Oriental" }, "geometry": { "type": "Point", "coordinates": [ -5.642542827961051, 32.196943244253312 ] } },
{ "type": "Feature", "properties": { "id": 2, "Nom": "Camping Amskou Imilchil", "Parc": "Parc National du Haut Atlas Oriental" }, "geometry": { "type": "Point", "coordinates": [ -5.638898117597736, 32.190673568278434 ] } },
{ "type": "Feature", "properties": { "id": 3, "Nom": "Rex", "Parc": "Parc National du Haut Atlas Oriental" }, "geometry": { "type": "Point", "coordinates": [ -5.435547684515845, 32.222191291062359 ] } },
{ "type": "Feature", "properties": { "id": 4, "Nom": "Palacio Sidi Hamza", "Parc": "Parc National du Haut Atlas Oriental" }, "geometry": { "type": "Point", "coordinates": [ -4.723826175519385, 32.446520244039654 ] } },
{ "type": "Feature", "properties": { "id": 5, "Nom": "Tighratin", "Parc": "Parc National du Haut Atlas Oriental" }, "geometry": { "type": "Point", "coordinates": [ -4.920299141911621, 32.339294666517986 ] } },
{ "type": "Feature", "properties": { "id": 6, "Nom": "Sahara Erg Chegaga Luxury Camp", "Parc": "Parc National Iriqui" }, "geometry": { "type": "Point", "coordinates": [ -6.242840667098961, 29.866508723447787 ] } },
{ "type": "Feature", "properties": { "id": 8, "Nom": "Nubia Luxury Desert Camp", "Parc": "Parc National Iriqui" }, "geometry": { "type": "Point", "coordinates": [ -6.224560992657787, 29.864078885598694 ] } },
{ "type": "Feature", "properties": { "id": 10, "Nom": "Atta Desert Camp", "Parc": "Parc National Iriqui" }, "geometry": { "type": "Point", "coordinates": [ -6.220127072440707, 29.854824280531084 ] } },
{ "type": "Feature", "properties": { "id": 10, "Nom": "Camp Al Koutban", "Parc": "Parc National Iriqui" }, "geometry": { "type": "Point", "coordinates": [ -6.22681148661671, 29.856834257232894 ] } },
{ "type": "Feature", "properties": { "id": 11, "Nom": "Sun Bivouc Chegaga", "Parc": "Parc National Iriqui" }, "geometry": { "type": "Point", "coordinates": [ -6.234807446940957, 29.859445227621752 ] } },
{ "type": "Feature", "properties": { "id": 10, "Nom": "Erg Chegaga Lodge", "Parc": "Parc National Iriqui" }, "geometry": { "type": "Point", "coordinates": [ -6.204224575393231, 29.844434447065321 ] } },
{ "type": "Feature", "properties": { "id": 10, "Nom": "Bivouac sous les étoiles Chegaga", "Parc": "Parc National Iriqui" }, "geometry": { "type": "Point", "coordinates": [ -6.192674026928568, 29.830959986333614 ] } },
{ "type": "Feature", "properties": { "id": 11, "Nom": "Aladin Desert Camp", "Parc": "Parc National Iriqui" }, "geometry": { "type": "Point", "coordinates": [ -6.171290608335436, 29.81969809314753 ] } },
{ "type": "Feature", "properties": { "id": 20, "Nom": "Authentic Desert Camp Erg Chegaga", "Parc": "Parc National Iriqui" }, "geometry": { "type": "Point", "coordinates": [ -6.175881019854295, 29.817861935146812 ] } },
{ "type": "Feature", "properties": { "id": 52, "Nom": "Umnya luxury camp", "Parc": "Parc National Iriqui" }, "geometry": { "type": "Point", "coordinates": [ -6.169375452880325, 29.807626676044599 ] } },
{ "type": "Feature", "properties": { "id": 12, "Nom": "Maison Bouzgarne", "Parc": "Parc National Souss Massa" }, "geometry": { "type": "Point", "coordinates": [ -9.641582104277662, 30.201964761605268 ] } },
{ "type": "Feature", "properties": { "id": 15, "Nom": "Kasbah D'Aknari", "Parc": "Parc National Souss Massa" }, "geometry": { "type": "Point", "coordinates": [ -9.649026177780895, 30.129180486730409 ] } },
{ "type": "Feature", "properties": { "id": 20, "Nom": "La dune", "Parc": "Parc National Souss Massa" }, "geometry": { "type": "Point", "coordinates": [ -9.6641250351324, 30.085708020290422 ] } },
{ "type": "Feature", "properties": { "id": 21, "Nom": "Ksar Massa", "Parc": "Parc National Souss Massa" }, "geometry": { "type": "Point", "coordinates": [ -9.666330572612493, 30.08546808734279 ] } },
{ "type": "Feature", "properties": { "id": 21, "Nom": "El menzeh", "Parc": "Parc National Souss Massa" }, "geometry": { "type": "Point", "coordinates": [ -9.666638178955603, 30.085280447473494 ] } },
{ "type": "Feature", "properties": { "id": 21, "Nom": "Camping Sidi-Wassay", "Parc": "Parc National Souss Massa" }, "geometry": { "type": "Point", "coordinates": [ -9.688622804297621, 30.055900965643122 ] } },
{ "type": "Feature", "properties": { "id": 23, "Nom": "Les Grottes D'Aglou", "Parc": "Parc National Souss Massa" }, "geometry": { "type": "Point", "coordinates": [ -9.828971274404662, 29.81193529885962 ] } },
{ "type": "Feature", "properties": { "id": 30, "Nom": "Refuge Toubkal Les Mouflons", "Parc": "Parc National Toubkal" }, "geometry": { "type": "Point", "coordinates": [ -7.93741220281766, 31.064026924073616 ] } },
{ "type": "Feature", "properties": { "id": 31, "Nom": "Refuge Club Alpin Français", "Parc": "Parc National Toubkal" }, "geometry": { "type": "Point", "coordinates": [ -7.93758138630637, 31.0635009172269 ] } },
{ "type": "Feature", "properties": { "id": 31, "Nom": "Refuge Lepiney", "Parc": "Parc National Toubkal" }, "geometry": { "type": "Point", "coordinates": [ -7.962214502262563, 31.076043565867174 ] } },
{ "type": "Feature", "properties": { "id": 35, "Nom": "Hotel le Village du Toubkal", "Parc": "Parc National Toubkal" }, "geometry": { "type": "Point", "coordinates": [ -7.914306352354998, 31.13238474367105 ] } },
{ "type": "Feature", "properties": { "id": 34, "Nom": "Azib tamsoult", "Parc": "Parc National Toubkal" }, "geometry": { "type": "Point", "coordinates": [ -7.96795905072011, 31.097434510966956 ] } },
{ "type": "Feature", "properties": { "id": 101, "Nom": "Jbel Anaffou", "Parc": "Parc national de Talassemtane" }, "geometry": { "type": "Point", "coordinates": [ -5.148861646366706, 35.313377080214593 ] } },
{ "type": "Feature", "properties": { "id": 102, "Nom": "Gite montagne", "Parc": "Parc national de Talassemtane" }, "geometry": { "type": "Point", "coordinates": [ -5.198490196893271, 35.175864182184341 ] } },
{ "type": "Feature", "properties": { "id": 103, "Nom": "Gite Taourarte", "Parc": "Parc national de Talassemtane" }, "geometry": { "type": "Point", "coordinates": [ -5.126321388272556, 35.207068909040743 ] } },
{ "type": "Feature", "properties": { "id": 104, "Nom": "Akchour", "Parc": "Parc national de Talassemtane" }, "geometry": { "type": "Point", "coordinates": [ -5.214083457481673, 35.253118893769845 ] } },
{ "type": "Feature", "properties": { "id": 106, "Nom": "Bourfie Tourrist", "Parc": "Parc national Al Hoceima" }, "geometry": { "type": "Point", "coordinates": [ -4.211866615881198, 35.138312778289119 ] } },
{ "type": "Feature", "properties": { "id": 107, "Nom": "Villa Azirdozoy", "Parc": "Parc national Al Hoceima" }, "geometry": { "type": "Point", "coordinates": [ -4.001782414331923, 35.231444364469056 ] } },
{ "type": "Feature", "properties": { "id": 108, "Nom": "Chafarina's Beach", "Parc": "Parc national Al Hoceima" }, "geometry": { "type": "Point", "coordinates": [ -3.980941421814722, 35.235771569440125 ] } },
{ "type": "Feature", "properties": { "id": 108, "Nom": "Gite Colina Del viente", "Parc": "Parc national Al Hoceima" }, "geometry": { "type": "Point", "coordinates": [ -3.984577350365385, 35.225749247671764 ] } },
{ "type": "Feature", "properties": { "id": 109, "Nom": "Casa abdeslam chabbout", "Parc": "Parc national Al Hoceima" }, "geometry": { "type": "Point", "coordinates": [ -4.140709869846753, 35.142808418783524 ] } },
{ "type": "Feature", "properties": { "id": 109, "Nom": "Gite Rural jnanate", "Parc": "Parc national Al Hoceima" }, "geometry": { "type": "Point", "coordinates": [ -4.321556707792766, 35.127420038074696 ] } },
{ "type": "Feature", "properties": { "id": 110, "Nom": "Elghala Boubrisse", "Parc": "Parc national de Tazzeka" }, "geometry": { "type": "Point", "coordinates": [ -4.195898517297875, 34.147925319286891 ] } },
{ "type": "Feature", "properties": { "id": 111, "Nom": "Ain Sahla", "Parc": "Parc national de Tazzeka" }, "geometry": { "type": "Point", "coordinates": [ -4.317371016849563, 34.10481545804754 ] } },
{ "type": "Feature", "properties": { "id": 112, "Nom": "Le Relaise De Tahla", "Parc": "Parc national de Tazzeka" }, "geometry": { "type": "Point", "coordinates": [ -4.308075034575706, 34.000798098724466 ] } },
{ "type": "Feature", "properties": { "id": 113, "Nom": "Admane à Tazzeka", "Parc": "Parc national de Tazzeka" }, "geometry": { "type": "Point", "coordinates": [ -4.15559093824483, 34.039943807274902 ] } },
{ "type": "Feature", "properties": { "id": 114, "Nom": "Douar El Kalaa", "Parc": "Parc national de Tazzeka" }, "geometry": { "type": "Point", "coordinates": [ -4.127515572425799, 34.104743038160336 ] } },
{ "type": "Feature", "properties": { "id": 115, "Nom": "Dar Chaib", "Parc": "Parc national de Tazzeka" }, "geometry": { "type": "Point", "coordinates": [ -4.095529396859833, 34.104329209044373 ] } },
{ "type": "Feature", "properties": { "id": 117, "Nom": "Atlas Lake Inn", "Parc": "Parc national de Khénifra" }, "geometry": { "type": "Point", "coordinates": [ -4.994240973464827, 33.080589462989657 ] } },
{ "type": "Feature", "properties": { "id": 118, "Nom": "Ajdir", "Parc": "Parc national de Khénifra" }, "geometry": { "type": "Point", "coordinates": [ -5.388195706119084, 32.948158396876892 ] } },
{ "type": "Feature", "properties": { "id": 118, "Nom": "IFRI", "Parc": "Parc national de Khénifra" }, "geometry": { "type": "Point", "coordinates": [ -5.369004000779507, 32.903019415104872 ] } },
{ "type": "Feature", "properties": { "id": 119, "Nom": "Dar Dyafa HASSAN", "Parc": "Parc national de Khénifra" }, "geometry": { "type": "Point", "coordinates": [ -5.456591145591, 32.978685461202723 ] } },
{ "type": "Feature", "properties": { "id": 119, "Nom": "Dar Zayane", "Parc": "Parc national de Khénifra" }, "geometry": { "type": "Point", "coordinates": [ -5.565943883307148, 32.926011290811552 ] } },
{ "type": "Feature", "properties": { "id": 120, "Nom": "Sous les étoiles", "Parc": "Parc national de Khénifra" }, "geometry": { "type": "Point", "coordinates": [ -5.346838580680284, 33.132742365949547 ] } },
{ "type": "Feature", "properties": { "id": 121, "Nom": "Lac Ouiouane", "Parc": "Parc national de Khénifra" }, "geometry": { "type": "Point", "coordinates": [ -5.343939833519618, 33.127552535205993 ] } },
{ "type": "Feature", "properties": { "id": 123, "Nom": "Villa Salam", "Parc": "Parc national D'Ifrane" }, "geometry": { "type": "Point", "coordinates": [ -5.011483521230867, 33.644430481286484 ] } },
{ "type": "Feature", "properties": { "id": 125, "Nom": "Charlets", "Parc": "Parc national D'Ifrane" }, "geometry": { "type": "Point", "coordinates": [ -5.041870388018534, 33.657909967618302 ] } },
{ "type": "Feature", "properties": { "id": 126, "Nom": "Atlas Grown", "Parc": "Parc national D'Ifrane" }, "geometry": { "type": "Point", "coordinates": [ -5.027076781819275, 33.509186217522029 ] } },
{ "type": "Feature", "properties": { "id": 127, "Nom": "COS ONE", "Parc": "Parc national D'Ifrane" }, "geometry": { "type": "Point", "coordinates": [ -5.093448096118653, 33.524853416492498 ] } },
{ "type": "Feature", "properties": { "id": 128, "Nom": "SMT D'Ifrane", "Parc": "Parc national D'Ifrane" }, "geometry": { "type": "Point", "coordinates": [ -5.091249046548493, 33.509519591722935 ] } },
{ "type": "Feature", "properties": { "id": 128, "Nom": "Tourtite", "Parc": "Parc national D'Ifrane" }, "geometry": { "type": "Point", "coordinates": [ -5.159619496820744, 33.465836637642909 ] } },
{ "type": "Feature", "properties": { "id": 129, "Nom": "Le Palaise des Cerisiers", "Parc": "Parc national D'Ifrane" }, "geometry": { "type": "Point", "coordinates": [ -5.180210597341333, 33.444987771519195 ] } },
{ "type": "Feature", "properties": { "id": 130, "Nom": "Ras Alma", "Parc": "Parc national D'Ifrane" }, "geometry": { "type": "Point", "coordinates": [ -5.146325242601139, 33.463209956543274 ] } },
{ "type": "Feature", "properties": { "id": 131, "Nom": "Forest Tagroumt", "Parc": "Parc national D'Ifrane" }, "geometry": { "type": "Point", "coordinates": [ -5.155521268076352, 33.444820960379175 ] } },
{ "type": "Feature", "properties": { "id": 132, "Nom": "Cedre gouraud", "Parc": "Parc national D'Ifrane" }, "geometry": { "type": "Point", "coordinates": [ -5.166516515927153, 33.440275233347741 ] } }
]
}
